[
  {"nome":"UBS Centro","endereco":"Rua Barão de Lucena, s/n","municipio":"Maceió","estado":"AL","telefone":"(82) 3315-5700","lat":-9.6659,"lng":-35.7350},
  {"nome":"UBS Vergel do Lago","endereco":"Rua Antônio Cipriano, s/n","municipio":"Maceió","estado":"AL","telefone":"(82) 3221-1234","lat":-9.6500,"lng":-35.7200},
  {"nome":"UBS Trapiche da Barra","endereco":"Av. Alvaro Otacílio, s/n","municipio":"Maceió","estado":"AL","telefone":"(82) 3221-5678","lat":-9.6750,"lng":-35.7100},
  {"nome":"UBS Arapiraca Centro","endereco":"Rua Coronel Buarque, 45","municipio":"Arapiraca","estado":"AL","telefone":"(82) 3521-1000","lat":-9.7525,"lng":-36.6614},
  {"nome":"UBS Palmeira dos Índios","endereco":"Rua João Pessoa, 100","municipio":"Palmeira dos Índios","estado":"AL","telefone":"(82) 3271-2000","lat":-9.4073,"lng":-36.6278},
  {"nome":"UBS União dos Palmares","endereco":"Praça da Liberdade, s/n","municipio":"União dos Palmares","estado":"AL","telefone":"(82) 3281-1100","lat":-9.1628,"lng":-36.0278},
  {"nome":"UBS Penedo","endereco":"Rua Sete de Setembro, s/n","municipio":"Penedo","estado":"AL","telefone":"(82) 3551-1200","lat":-10.2903,"lng":-36.5847},
  {"nome":"UBS Delmiro Gouveia","endereco":"Av. Getúlio Vargas, s/n","municipio":"Delmiro Gouveia","estado":"AL","telefone":"(82) 3641-1300","lat":-9.3900,"lng":-37.9997},
  {"nome":"UBS Piaçabuçu","endereco":"Rua Principal, s/n","municipio":"Piaçabuçu","estado":"AL","telefone":"(82) 3531-1100","lat":-10.4067,"lng":-36.4339},

  {"nome":"UBS Brotas","endereco":"Rua Waldemar Falcão, 130","municipio":"Salvador","estado":"BA","telefone":"(71) 3116-2300","lat":-12.9811,"lng":-38.5042},
  {"nome":"UBS Itapuã","endereco":"Av. Otávio Mangabeira, s/n","municipio":"Salvador","estado":"BA","telefone":"(71) 3116-3200","lat":-12.9396,"lng":-38.3447},
  {"nome":"UBS Pau da Lima","endereco":"Rua Voluntários da Pátria, s/n","municipio":"Salvador","estado":"BA","telefone":"(71) 3116-4500","lat":-12.9050,"lng":-38.4056},
  {"nome":"UBS Feira de Santana","endereco":"Rua General Argolo, s/n","municipio":"Feira de Santana","estado":"BA","telefone":"(75) 3621-1500","lat":-12.2667,"lng":-38.9667},
  {"nome":"UBS Vitória da Conquista","endereco":"Av. Brumado, s/n","municipio":"Vitória da Conquista","estado":"BA","telefone":"(77) 3425-1200","lat":-14.8619,"lng":-40.8444},
  {"nome":"UBS Camaçari","endereco":"Rua Cel. José Carvalho, s/n","municipio":"Camaçari","estado":"BA","telefone":"(71) 3623-6100","lat":-12.6992,"lng":-38.3239},
  {"nome":"UBS Juazeiro","endereco":"Av. Getúlio Vargas, 800","municipio":"Juazeiro","estado":"BA","telefone":"(74) 3611-1100","lat":-9.4197,"lng":-40.5019},
  {"nome":"UBS Paulo Afonso","endereco":"Rua Barão do Rio Branco, s/n","municipio":"Paulo Afonso","estado":"BA","telefone":"(75) 3281-1400","lat":-9.3967,"lng":-38.2150},
  {"nome":"UBS Barreiras","endereco":"Rua Pres. Dutra, s/n","municipio":"Barreiras","estado":"BA","telefone":"(77) 3611-2200","lat":-12.1522,"lng":-44.9914},
  {"nome":"UBS Ilhéus","endereco":"Av. Soares Lopes, s/n","municipio":"Ilhéus","estado":"BA","telefone":"(73) 3231-1500","lat":-14.7892,"lng":-39.0428},

  {"nome":"UBS Aldeota","endereco":"Av. Dom Luís, 300","municipio":"Fortaleza","estado":"CE","telefone":"(85) 3452-1200","lat":-3.7319,"lng":-38.5017},
  {"nome":"UBS Messejana","endereco":"Av. Frei Cirilo, s/n","municipio":"Fortaleza","estado":"CE","telefone":"(85) 3452-2300","lat":-3.8347,"lng":-38.4950},
  {"nome":"UBS Barra do Ceará","endereco":"Rua Padre Mororó, s/n","municipio":"Fortaleza","estado":"CE","telefone":"(85) 3452-3400","lat":-3.7053,"lng":-38.5711},
  {"nome":"UBS Caucaia","endereco":"Av. Dom Almeida Lustosa, s/n","municipio":"Caucaia","estado":"CE","telefone":"(85) 3342-1500","lat":-3.7369,"lng":-38.6531},
  {"nome":"UBS Juazeiro do Norte","endereco":"Rua São Francisco, s/n","municipio":"Juazeiro do Norte","estado":"CE","telefone":"(88) 3511-3600","lat":-7.2133,"lng":-39.3150},
  {"nome":"UBS Sobral","endereco":"Rua da Matriz, s/n","municipio":"Sobral","estado":"CE","telefone":"(88) 3677-1200","lat":-3.6864,"lng":-40.3497},
  {"nome":"UBS Crato","endereco":"Rua Cel. Alexanzito, s/n","municipio":"Crato","estado":"CE","telefone":"(88) 3521-1300","lat":-7.2342,"lng":-39.4097},
  {"nome":"UBS Maracanaú","endereco":"Av. Carlos Jereissati, s/n","municipio":"Maracanaú","estado":"CE","telefone":"(85) 3371-1400","lat":-3.8786,"lng":-38.6253},
  {"nome":"UBS Iguatu","endereco":"Rua Floriano Peixoto, s/n","municipio":"Iguatu","estado":"CE","telefone":"(88) 3581-1200","lat":-6.3594,"lng":-39.2989},

  {"nome":"UBS Centro São Luís","endereco":"Rua do Giz, s/n","municipio":"São Luís","estado":"MA","telefone":"(98) 3232-1500","lat":-2.5297,"lng":-44.3028},
  {"nome":"UBS Cohab","endereco":"Av. Jerônimo de Albuquerque, s/n","municipio":"São Luís","estado":"MA","telefone":"(98) 3232-2600","lat":-2.5700,"lng":-44.2900},
  {"nome":"UBS Imperatriz","endereco":"Rua Filomena Chaves, s/n","municipio":"Imperatriz","estado":"MA","telefone":"(99) 3524-1200","lat":-5.5244,"lng":-47.4744},
  {"nome":"UBS Timon","endereco":"Rua Pres. Kennedy, s/n","municipio":"Timon","estado":"MA","telefone":"(99) 3212-1300","lat":-5.0942,"lng":-42.8386},
  {"nome":"UBS Caxias","endereco":"Rua Epaminondas, s/n","municipio":"Caxias","estado":"MA","telefone":"(99) 3521-1400","lat":-4.8686,"lng":-43.3597},
  {"nome":"UBS Codó","endereco":"Rua Cel. Varela, s/n","municipio":"Codó","estado":"MA","telefone":"(99) 3661-1200","lat":-4.4556,"lng":-43.8861},
  {"nome":"UBS Bacabal","endereco":"Rua Nove de Agosto, s/n","municipio":"Bacabal","estado":"MA","telefone":"(99) 3621-1100","lat":-4.2289,"lng":-44.7839},
  {"nome":"UBS Balsas","endereco":"Av. Getúlio Vargas, s/n","municipio":"Balsas","estado":"MA","telefone":"(99) 3541-1300","lat":-7.5322,"lng":-46.0356},

  {"nome":"UBS Centro João Pessoa","endereco":"Av. Epitácio Pessoa, s/n","municipio":"João Pessoa","estado":"PB","telefone":"(83) 3218-1500","lat":-7.1195,"lng":-34.8450},
  {"nome":"UBS Mangabeira","endereco":"Rua Monsenhor Walfredo Leal, s/n","municipio":"João Pessoa","estado":"PB","telefone":"(83) 3218-2600","lat":-7.1703,"lng":-34.8564},
  {"nome":"UBS Campina Grande","endereco":"Rua Floriano Peixoto, 248","municipio":"Campina Grande","estado":"PB","telefone":"(83) 3341-1200","lat":-7.2306,"lng":-35.8811},
  {"nome":"UBS Santa Rita","endereco":"Rua da Luz, s/n","municipio":"Santa Rita","estado":"PB","telefone":"(83) 3231-1300","lat":-7.1189,"lng":-34.9756},
  {"nome":"UBS Patos","endereco":"Rua Horácio Nóbrega, s/n","municipio":"Patos","estado":"PB","telefone":"(83) 3421-1400","lat":-7.0244,"lng":-37.2800},
  {"nome":"UBS Bayeux","endereco":"Rua Marechal Floriano, s/n","municipio":"Bayeux","estado":"PB","telefone":"(83) 3251-1200","lat":-7.1253,"lng":-34.9278},
  {"nome":"UBS Sousa","endereco":"Rua Epitácio Pessoa, s/n","municipio":"Sousa","estado":"PB","telefone":"(83) 3521-1300","lat":-6.7581,"lng":-38.2289},

  {"nome":"UBS Boa Vista","endereco":"Rua da Aurora, s/n","municipio":"Recife","estado":"PE","telefone":"(81) 3355-1200","lat":-8.0594,"lng":-34.8919},
  {"nome":"UBS Casa Amarela","endereco":"Av. Norte, s/n","municipio":"Recife","estado":"PE","telefone":"(81) 3355-2300","lat":-8.0183,"lng":-34.9261},
  {"nome":"UBS Ibura","endereco":"Rua Ibura, s/n","municipio":"Recife","estado":"PE","telefone":"(81) 3355-3400","lat":-8.1278,"lng":-34.9536},
  {"nome":"UBS Caruaru","endereco":"Rua Vigário Freire, s/n","municipio":"Caruaru","estado":"PE","telefone":"(81) 3721-1200","lat":-8.2761,"lng":-35.9761},
  {"nome":"UBS Petrolina","endereco":"Av. Cardoso de Sá, s/n","municipio":"Petrolina","estado":"PE","telefone":"(87) 3861-1300","lat":-9.3986,"lng":-40.5022},
  {"nome":"UBS Olinda","endereco":"Rua do Amparo, s/n","municipio":"Olinda","estado":"PE","telefone":"(81) 3493-1400","lat":-7.9994,"lng":-34.8539},
  {"nome":"UBS Caruaru Leste","endereco":"Rua João Pessoa, s/n","municipio":"Caruaru","estado":"PE","telefone":"(81) 3721-2200","lat":-8.2850,"lng":-35.9650},
  {"nome":"UBS Jatobá","endereco":"Rua Beira Rio, s/n","municipio":"Jatobá","estado":"PE","telefone":"(87) 3861-2100","lat":-9.1667,"lng":-38.2833},
  {"nome":"UBS Petrolândia","endereco":"Rua Principal, s/n","municipio":"Petrolândia","estado":"PE","telefone":"(87) 3878-1100","lat":-9.0667,"lng":-38.3000},
  {"nome":"UBS Floresta","endereco":"Rua Cel. Alexandrino, s/n","municipio":"Floresta","estado":"PE","telefone":"(87) 3878-2100","lat":-8.6000,"lng":-38.5667},
  {"nome":"UBS Cabrobó","endereco":"Rua Sete de Setembro, s/n","municipio":"Cabrobó","estado":"PE","telefone":"(87) 3878-3100","lat":-8.5167,"lng":-39.3167},
  {"nome":"UBS Itacuruba","endereco":"Rua das Flores, s/n","municipio":"Itacuruba","estado":"PE","telefone":"(87) 3878-4100","lat":-8.7833,"lng":-38.7167},
  {"nome":"UBS Belém do São Francisco","endereco":"Av. Dantas Barreto, s/n","municipio":"Belém do São Francisco","estado":"PE","telefone":"(87) 3867-1100","lat":-8.7500,"lng":-38.9667},
  {"nome":"UBS Cabrobo","endereco":"Rua Marechal Deodoro, s/n","municipio":"Cabrobo","estado":"PE","telefone":"(87) 3878-5100","lat":-8.5083,"lng":-39.3097},
  {"nome":"UBS Glória","endereco":"Rua Principal, s/n","municipio":"Glória","estado":"BA","telefone":"(75) 3567-1100","lat":-9.3333,"lng":-38.2500},

  {"nome":"UBS Teresina Centro","endereco":"Av. Frei Serafim, s/n","municipio":"Teresina","estado":"PI","telefone":"(86) 3215-1200","lat":-5.0892,"lng":-42.8019},
  {"nome":"UBS Teresina Leste","endereco":"Rua Simplício Mendes, s/n","municipio":"Teresina","estado":"PI","telefone":"(86) 3215-2300","lat":-5.0750,"lng":-42.7800},
  {"nome":"UBS Parnaíba","endereco":"Rua Cel. Godois, s/n","municipio":"Parnaíba","estado":"PI","telefone":"(86) 3321-1300","lat":-2.9044,"lng":-41.7764},
  {"nome":"UBS Picos","endereco":"Rua Coronel Galdino, s/n","municipio":"Picos","estado":"PI","telefone":"(89) 3421-1400","lat":-7.0775,"lng":-41.4672},
  {"nome":"UBS Floriano","endereco":"Rua Sete de Setembro, s/n","municipio":"Floriano","estado":"PI","telefone":"(89) 3521-1200","lat":-6.7672,"lng":-43.0217},
  {"nome":"UBS Campo Maior","endereco":"Rua Artur Ferreira, s/n","municipio":"Campo Maior","estado":"PI","telefone":"(86) 3271-1300","lat":-4.8278,"lng":-42.1689},

  {"nome":"UBS Natal Centro","endereco":"Rua da Conceição, s/n","municipio":"Natal","estado":"RN","telefone":"(84) 3232-1200","lat":-5.7945,"lng":-35.2110},
  {"nome":"UBS Lagoa Nova","endereco":"Av. Alexandrino de Alencar, s/n","municipio":"Natal","estado":"RN","telefone":"(84) 3232-2300","lat":-5.8328,"lng":-35.2064},
  {"nome":"UBS Mossoró","endereco":"Rua Santos Dumont, s/n","municipio":"Mossoró","estado":"RN","telefone":"(84) 3321-1300","lat":-5.1878,"lng":-37.3442},
  {"nome":"UBS Caicó","endereco":"Rua Cel. Martiniano, s/n","municipio":"Caicó","estado":"RN","telefone":"(84) 3421-1400","lat":-6.4589,"lng":-37.0972},
  {"nome":"UBS Parnamirim","endereco":"Rua das Flores, s/n","municipio":"Parnamirim","estado":"RN","telefone":"(84) 3644-1200","lat":-5.9147,"lng":-35.2636},
  {"nome":"UBS São Gonçalo do Amarante","endereco":"Rua Cel. Lima, s/n","municipio":"São Gonçalo do Amarante","estado":"RN","telefone":"(84) 3262-1300","lat":-5.7919,"lng":-35.3289},

  {"nome":"UBS Centro Aracaju","endereco":"Rua Laranjeiras, s/n","municipio":"Aracaju","estado":"SE","telefone":"(79) 3179-1200","lat":-10.9167,"lng":-37.0500},
  {"nome":"UBS Siqueira Campos","endereco":"Av. Maranhão, s/n","municipio":"Aracaju","estado":"SE","telefone":"(79) 3179-2300","lat":-10.9350,"lng":-37.0650},
  {"nome":"UBS Lagarto","endereco":"Rua José do Prado Franco, s/n","municipio":"Lagarto","estado":"SE","telefone":"(79) 3631-1300","lat":-10.9167,"lng":-37.6667},
  {"nome":"UBS Itabaiana","endereco":"Rua Cel. Efígênio Prado, s/n","municipio":"Itabaiana","estado":"SE","telefone":"(79) 3431-1400","lat":-10.6844,"lng":-37.4258},
  {"nome":"UBS Nossa Senhora do Socorro","endereco":"Av. Contorno, s/n","municipio":"Nossa Senhora do Socorro","estado":"SE","telefone":"(79) 3251-1200","lat":-10.8567,"lng":-37.1219},
  {"nome":"UBS Estância","endereco":"Rua Siqueira Menezes, s/n","municipio":"Estância","estado":"SE","telefone":"(79) 3522-1300","lat":-11.2700,"lng":-37.4436}
]
